{
  "msg":"true",
  "items":[
    {
      "id":44,
      "equiNum":"HN000001",
      "province":"广东",
      "city":"深圳市",
      "district":"南山区",
      "street":"西丽街道",
      "address":"同富裕工业城1",
      "latitude":"22.591272",
      "longitude":"113.991237",
      "product1Id":"1",
      "product2Id":"1",
      "area":"华南",
      "eqProduct":[
        {
          "id":1,
          "name":"湖南大米",
          "pic":"http://dwz.cn/5WnbkM"
        }
      ]
    },
    {
      "id":45,
      "equiNum":"HN000001",
      "province":"广东",
      "city":"深圳市",
      "district":"南山区",
      "street":"西丽街道",
      "address":"同富裕工业城2",
      "latitude":"22.591272",
      "longitude":"113.991237",
      "product1Id":"1",
      "product2Id":"1",
      "area":"华南",
      "eqProduct":[
        {
          "id":1,
          "name":"湖南大米",
          "pic":"http://dwz.cn/5WnbkM"
        }
      ]
    },
    {
      "id":47,
      "equiNum":"HN000001",
      "province":"广东",
      "city":"深圳市",
      "district":"南山区",
      "street":"西丽街道",
      "address":"同富裕工业城3",
      "latitude":"22.591272",
      "longitude":"113.991237",
      "product1Id":"1",
      "product2Id":"1",
      "area":"华南",
      "eqProduct":[
        {
          "id":1,
          "name":"湖南大米",
          "pic":"http://dwz.cn/5WnbkM"
        }
      ]
    },
    {
      "id":48,
      "equiNum":"HN000001",
      "province":"广东",
      "city":"深圳市",
      "district":"南山区",
      "street":"西丽街道",
      "address":"同富裕工业城4",
      "latitude":"22.591272",
      "longitude":"113.991237",
      "product1Id":"1",
      "product2Id":"1",
      "area":"华南",
      "eqProduct":[
        {
          "id":1,
          "name":"湖南大米",
          "pic":"http://dwz.cn/5WnbkM"
        }
      ]
    }
  ]
}